[
  {
    "name": "Mörby centrum",
    "longitude": "18.036117500000046",
    "latitude": "59.3982573",
    "line": "Röda",
    "zone": "3"
  },
  {
    "name": "Danderyds sjukhus",
    "longitude": "18.039432000000033",
    "latitude": "59.392321",
    "line": "Röda",
    "zone": "2"
  },
  {
    "name": "Bergshamra",
    "longitude": "18.032709599999976",
    "latitude": "59.3803526",
    "line": "Röda",
    "zone": "2"
  },
  {
    "name": "Universitetet",
    "longitude": "18.054604400000017",
    "latitude": "59.3651918",
    "line": "Röda",
    "zone": "2"
  },
  {
    "name": "Tekniska högskolan",
    "longitude": "18.071596399999976",
    "latitude": "59.3459088",
    "line": "Röda",
    "zone": "1"
  },
  {
    "name": "Stadion",
    "longitude": "18.081700700000056",
    "latitude": "59.3429669",
    "line": "Röda",
    "zone": "1"
  },
  {
    "name": "Östermalmstorg",
    "longitude": "18.074082699999963",
    "latitude": "59.3349729",
    "line": "Röda",
    "zone": "1"
  },
  {
    "name": "T-centralen",
    "longitude": "18.059524399999987",
    "latitude": "59.3306725",
    "line": "Alla",
    "zone": "1"
  },
  {
    "name": "Tekniska högskolan",
    "longitude": "18.071596399999976",
    "latitude": "59.3459088",
    "line": "Röda",
    "zone": "1"
  },
  {
    "name": "Gamla stan",
    "longitude": "18.067620300000044",
    "latitude": "59.3231599",
    "line": "Röda",
    "zone": "1"
  },
  {
    "name": "Slussen",
    "longitude": "18.07214060000001",
    "latitude": "59.31951240000001",
    "line": "Röda",
    "zone": "1"
  },
  {
    "name": "Mariatorget",
    "longitude": "18.06324840000002",
    "latitude": "59.3169863",
    "line": "Röda",
    "zone": "1"
  },
  {
    "name": "Zinkensdamm",
    "longitude": "18.050152199999957",
    "latitude": "59.3177777",
    "line": "Röda",
    "zone": "1"
  },
  {
    "name": "Hornstull",
    "longitude": "18.03402140000003",
    "latitude": "59.3158365",
    "line": "Röda",
    "zone": "1"
  },
  {
    "name": "Liljeholmen",
    "longitude": "18.023130100000003",
    "latitude": "59.3107063",
    "line": "Röda",
    "zone": "2"
  },
  {
    "name": "Midsommarkransen",
    "longitude": "18.012036099999932",
    "latitude": "59.301852",
    "line": "Röda",
    "zone": "2"
  },
  {
    "name": "Telefonplan",
    "longitude": "17.997235199999977",
    "latitude": "59.29832139999999",
    "line": "Röda",
    "zone": "2"
  },
  {
    "name": "Hägerstensåsen",
    "longitude": "17.979151900000033",
    "latitude": "59.2955713",
    "line": "Röda",
    "zone": "2"
  },
  {
    "name": "Västertorp",
    "longitude": "17.96666749999997",
    "latitude": "59.291379",
    "line": "Röda",
    "zone": "2"
  },
  {
    "name": "Fruängen",
    "longitude": "17.96500579999997",
    "latitude": "59.285929",
    "line": "Röda",
    "zone": "3"
  },
  {
    "name": "Aspudden",
    "longitude": "18.001155799999992",
    "latitude": "59.306416",
    "line": "Röda",
    "zone": "2"
  },
  {
    "name": "Örnsberg",
    "longitude": "17.98919980000005",
    "latitude": "59.3055324",
    "line": "Röda",
    "zone": "2"
  },
  {
    "name": "Axelsberg",
    "longitude": "17.97491869999999",
    "latitude": "59.30436109999999",
    "line": "Röda",
    "zone": "2"
  },
  {
    "name": "Mälarhöjden",
    "longitude": "17.957281999999964",
    "latitude": "59.3009181",
    "line": "Röda",
    "zone": "2"
  },
  {
    "name": "Bredäng",
    "longitude": "17.933813600000008",
    "latitude": "59.29483829999999",
    "line": "Röda",
    "zone": "2"
  },
  {
    "name": "Sätra",
    "longitude": "17.90889160000006",
    "latitude": "59.28669840000001",
    "line": "Röda",
    "zone": "2"
  },
  {
    "name": "Skärholmen",
    "longitude": "17.907005099999992",
    "latitude": "59.27714400000001",
    "line": "Röda",
    "zone": "2"
  },
  {
    "name": "Vårberg",
    "longitude": "17.87310219999995",
    "latitude": "59.2798793",
    "line": "Röda",
    "zone": "2"
  },
  {
    "name": "Vårby gård",
    "longitude": "17.88439740000001",
    "latitude": "59.2646124",
    "line": "Röda",
    "zone": "2"
  },
  {
    "name": "Masmo",
    "longitude": "17.880332599999974",
    "latitude": "59.2496816",
    "line": "Röda",
    "zone": "2"
  },
  {
    "name": "Fittja",
    "longitude": "17.86096759999998",
    "latitude": "59.24746560000001",
    "line": "Röda",
    "zone": "2"
  },
  {
    "name": "Alby",
    "longitude": "17.84532809999996",
    "latitude": "59.2394955",
    "line": "Röda",
    "zone": "2"
  },
  {
    "name": "Hallunda",
    "longitude": "17.824900699999944",
    "latitude": "59.2440703",
    "line": "Röda",
    "zone": "2"
  },
  {
    "name": "Norsborg",
    "longitude": "17.814525199999935",
    "latitude": "59.24379089999999",
    "line": "Röda",
    "zone": "3"
  }
]